站號,地區,站名,lng,lat,總車位,可借車位數,可還空位數,營運狀態,可借車佔比
1001,新店區,大鵬華城,121.53398,24.99116,28,9,19,1,0.32142857142857145
1002,汐止區,汐止火車站,121.662748,25.068914,44,30,11,1,0.6818181818181818
1003,汐止區,汐止區公所,121.658301,25.064162,46,31,13,1,0.6739130434782609
1004,汐止區,國泰綜合醫院,121.662555,25.07315,48,26,22,1,0.5416666666666666
1005,新店區,裕隆公園,121.546319,24.979649,32,20,12,1,0.625
1006,新店區,捷運大坪林站(5號出口),121.543620,24.982830,78,24,54,1,0.3076923076923077
1007,汐止區,汐科火車站(北),121.653019,25.064106,26,10,15,1,0.38461538461538464
1008,三重區,興華公園,121.483101,25.060125,34,5,35,1,0.14705882352941177
1009,三重區,三重國民運動中心,121.488489,25.054391,68,39,28,1,0.5735294117647058
1010,三重區,捷運三重站(3號出口),121.484739,25.055883,34,10,13,1,0.29411764705882354
1011,汐止區,樟樹國小,121.640367,25.066688,48,31,17,1,0.6458333333333334
1012,汐止區,金龍國小,121.628908,25.0688,52,32,20,1,0.6153846153846154
1013,汐止區,白雲國小,121.618888,25.047578,36,20,16,1,0.5555555555555556
1014,汐止區,東勢宜興活動中心,121.624333,25.039031,52,14,38,1,0.2692307692307692
1015,新莊區,後港公園,121.428348,25.025358,40,8,26,1,0.2
1016,新莊區,福營行政中心,121.423870,25.0241250,42,14,20,1,0.3333333333333333
1017,新莊區,西盛公園,121.428048,25.017113,36,3,32,1,0.08333333333333333
1018,新店區,忠誠里(北新路2段97巷),121.542779,24.974272,20,0,15,1,0
1019,蘆洲區,仁愛廣場,121.471621,25.090565,50,6,44,1,0.12
1020,三重區,重陽國小,121.484337 ,25.066245 ,36,1,35,1,0.027777777777777776
1021,三重區,明志國中,121.488982,25.063396,50,5,45,1,0.1
1022,三重區,三重商工,121.480705,25.068681,64,45,17,1,0.703125
1023,新莊區,捷運新莊站(1號出口),121.452069 ,25.036152 ,58,26,8,1,0.4482758620689655
1024,汐止區,原興廣場,121.633149,25.065042,52,20,32,1,0.38461538461538464
1025,汐止區,文化白雲公園,121.655207,25.056875,68,7,59,1,0.10294117647058823
1026,中和區,秀山國小,121.521988 ,24.996151 ,62,17,45,1,0.27419354838709675
1027,中和區,捷運永安市場站,121.511588 ,25.001013 ,60,34,21,1,0.5666666666666667
1028,永和區,福和國中,121.520930,25.005952,58,7,51,1,0.1206896551724138
1029,永和區,仁愛公園,121.505825,25.009838,60,6,54,1,0.1
1030,中和區,中和公園,121.514350 ,25.000726 ,44,0,0,1,0
1031,汐止區,金龍公園,121.631525 ,25.069473,52,3,48,1,0.057692307692307696
1032,蘆洲區,重陽公園,121.483618,25.085688,50,10,33,1,0.2
1033,蘆洲區,捷運三民高中站(1號出口),121.472722 ,25.085815 ,66,24,42,1,0.36363636363636365
1034,蘆洲區,中原公園,121.463894 ,25.083316 ,58,12,46,1,0.20689655172413793
1035,新莊區,丹鳳派出所,121.414662 ,25.027694 ,38,10,28,1,0.2631578947368421
1036,新店區,小金門友誼公園,121.538140,24.977227,48,35,11,1,0.7291666666666666
1037,新店區,中興寶橋路口,121.546870 ,24.976180 ,52,30,22,1,0.5769230769230769
1038,新莊區,新莊棒球場,121.446053 ,25.041603 ,74,12,61,1,0.16216216216216217
1039,永和區,頂溪國小,121.511261,25.015811,36,13,23,1,0.3611111111111111
1040,永和區,永和國小,121.517442 ,25.002272 ,30,18,12,1,0.6
1041,永和區,秀朗國小,121.522843 ,24.999392 ,40,18,22,1,0.45
1042,新店區,台北慈濟醫院,121.536887 ,24.985872 ,40,14,18,1,0.35
1043,永和區,捷運頂溪站(1號出口),121.515271 ,25.012176 ,36,12,24,1,0.3333333333333333
1044,永和區,保安永平路口,121.506471 ,25.012691 ,42,7,35,1,0.16666666666666666
1045,新店區,崇光女中,121.539554 ,24.972127 ,36,26,9,1,0.7222222222222222
1046,新店區,新店高中,121.534209 ,24.974181 ,42,16,24,1,0.38095238095238093
1047,新莊區,新莊文化藝術中心,121.444453 ,25.047150 ,48,40,8,1,0.8333333333333334
1048,新莊區,中華中原路口,121.451752,25.054232,58,7,51,1,0.1206896551724138
1049,三重區,新北高中,121.489525 ,25.087225 ,60,30,26,1,0.5
1050,新莊區,福壽公園,121.457746 ,25.051829 ,36,6,30,1,0.16666666666666666
1051,汐止區,保長公園,121.674342 ,25.079523 ,60,11,47,1,0.18333333333333332
1052,新店區,新店公有中央市場,121.527287,24.975308,28,2,25,1,0.07142857142857142
1053,永和區,永平高中,121.509092,25.009790,34,11,22,1,0.3235294117647059
1054,新店區,惠國市場,121.543384 ,24.970415 ,28,2,26,1,0.07142857142857142
1055,新店區,陽光橋,121.524176 ,24.978494 ,40,17,22,1,0.425
1056,新店區,中興寶慶街口,121.541950 ,24.986942 ,42,9,33,1,0.21428571428571427
1057,汐止區,東方科學園區,121.649512,25.061262,52,33,18,1,0.6346153846153846
1058,汐止區,連興龍安路口,121.654430,25.062989,62,40,11,1,0.6451612903225806
1059,汐止區,青山國民中小學,121.655586,25.061034,50,18,32,1,0.36
1060,汐止區,汐止區綜合運動場,121.659067,25.066238,44,24,20,1,0.5454545454545454
1061,汐止區,汐止公園,121.659763,25.067682,52,32,19,1,0.6153846153846154
1062,永和區,保順環河西路口,121.503376,25.010786,58,13,44,1,0.22413793103448276
1063,汐止區,台灣科學園區,121.634899,25.057900,40,14,26,1,0.35
1064,新店區,中正國小,121.536296,24.971496,32,5,24,1,0.15625
1065,三重區,開元市民活動中心,121.503557,25.066074,34,5,29,1,0.14705882352941177
1066,汐止區,雍和科學園區,121.626018,25.058078,44,26,17,1,0.5909090909090909
1067,三重區,二重國小,121.477656,25.065976,46,11,32,1,0.2391304347826087
1068,三重區,二重國中,121.480465,25.065957,70,28,41,1,0.4
1069,三重區,三重行政中心,121.488229,25.060566,44,21,22,1,0.4772727272727273
1070,三重區,新北市立圖書館三重分館,121.495529,25.066099,50,7,43,1,0.14
1071,三重區,三張公園,121.490935,25.070507,40,3,36,1,0.075
1072,新莊區,捷運丹鳳站(1號出口),121.422799,25.029032,46,11,29,1,0.2391304347826087
1073,永和區,永福橋,121.524184,25.010032,50,11,39,1,0.22
1074,新莊區,中港國小,121.44780,25.045673,50,9,41,1,0.18
1075,三重區,六合公園,121.487588,25.069499,40,10,30,1,0.25
1076,三重區,正義公園,121.497818,25.068551,44,18,26,1,0.4090909090909091
1077,蘆洲區,捷運徐匯中學站(1號出口),121.479852,25.080468,48,13,35,1,0.2708333333333333
1078,新莊區,黃城公園,121.448239,25.052382,32,6,26,1,0.1875
1079,三重區,捷運菜寮站(3號出口),121.492198,25.060471,30,11,19,1,0.36666666666666664
1080,三重區,捷運三和國中站(1號出口),121.487795,25.075881,80,66,14,1,0.825
1081,中和區,中和國民運動中心,121.487692,24.993477,50,20,30,1,0.4
1082,新莊區,四維公園,121.422185,25.021308,40,3,37,1,0.075
1083,蘆洲區,蘆洲國民運動中心,121.461613,25.091945,42,12,30,1,0.2857142857142857
1084,三重區,和平公園,121.485712,25.070884,26,6,19,1,0.23076923076923078
1085,三重區,三重綜合體育館,121.491926,25.061446,52,28,24,1,0.5384615384615384
1086,三重區,信義公園,121.498749,25.064804,24,13,11,1,0.5416666666666666
1087,新店區,捷運小碧潭站(1號出口),121.53029,24.97152,44,26,17,1,0.5909090909090909
1088,永和區,秀得里(成功路二段),121.526729,25.000705,20,5,14,1,0.25
1089,蘆洲區,永平公園,121.459424,25.089987,44,21,16,1,0.4772727272727273
1090,蘆洲區,永康公園,121.458210,25.084920,34,15,19,1,0.4411764705882353
1091,新莊區,頭前運動公園,121.462124,25.052180,50,3,45,1,0.06
1092,新莊區,頭前國中,121.459318,25.054464,42,19,23,1,0.4523809523809524
1093,新店區,建國民權路口,121.537462,24.983184,34,22,5,1,0.6470588235294118
1094,三重區,聯邦公園,121.483710,25.064447,48,20,28,1,0.4166666666666667
1095,蘆洲區,捷運蘆洲站,121.464031,25.091637,92,51,39,1,0.5543478260869565
1096,三重區,集成成功路口,121.488208,25.051542,24,7,16,1,0.2916666666666667
1097,板橋區,板橋國民運動中心,121.458152,25.022235,34,22,12,1,0.6470588235294118
1098,板橋區,永安公園,121.477572,25.024478,38,4,34,1,0.10526315789473684
1099,板橋區,捷運江子翠站(3號出口),121.472359,25.029729,44,20,24,1,0.45454545454545453
1100,板橋區,音樂公園,121.480460,25.028631,48,2,46,1,0.041666666666666664
1101,新店區,捷運七張站(1號出口),121.542767,24.974996,42,3,28,1,0.07142857142857142
1102,新店區,北新國小,121.544428,24.974233,44,32,12,1,0.7272727272727273
1103,板橋區,捷運新埔站(2號出口),121.467598,25.022095,40,20,20,1,0.5
1104,板橋區,聯合醫院板橋院區,121.457773,25.023832,34,5,28,1,0.14705882352941177
1105,板橋區,捷運板橋站(3號出口),121.462051,25.014797,68,47,18,1,0.6911764705882353
1106,板橋區,民生公園,121.475894,25.013087,42,10,31,1,0.23809523809523808
1107,板橋區,新北市政府(新府路),121.464224,25.012374,56,30,25,1,0.5357142857142857
1108,板橋區,捷運板橋站(1號出口),121.461900,25.013174,102,69,33,1,0.6764705882352942
1109,板橋區,板橋地政事務所,121.463387,25.007983,52,3,47,1,0.057692307692307696
1110,板橋區,板橋戶政事務所,121.456308,25.012839,36,9,25,1,0.25
1111,板橋區,板橋和平公園,121.464326,24.997679,40,32,8,1,0.8
1112,三重區,碧華公園,121.487491,25.083741,28,10,18,1,0.35714285714285715
1113,三重區,五福里(五華街),121.493902,25.081725,52,25,26,1,0.4807692307692308
1114,三重區,同安公園,121.499067,25.057320,30,7,22,1,0.23333333333333334
1115,新莊區,中華里(中華路二段),121.453766,25.045951,38,17,20,1,0.4473684210526316
1116,新莊區,中華自治街口,121.453202,25.047855,36,4,32,1,0.1111111111111111
1117,板橋區,捷運府中站(3號出口),121.458776,25.008999,42,17,25,1,0.40476190476190477
1118,板橋區,捷運亞東醫院站(2號出口),121.452315,24.997830,52,16,35,1,0.3076923076923077
1119,新莊區,新泰公園,121.444946,25.037200,36,8,26,1,0.2222222222222222
1120,永和區,上林里(環河東路一段),121.520951,25.014999,38,9,28,1,0.23684210526315788
1121,三重區,進安公園,121.493774,25.086031,22,8,14,1,0.36363636363636365
1122,三重區,自強溪尾街口,121.490157,25.078220,40,18,22,1,0.45
1123,三重區,捷運三重國小站,121.497126,25.070418,32,5,27,1,0.15625
1124,汐止區,五堵火車站,121.666869,25.077493,56,30,26,1,0.5357142857142857
1125,中和區,捷運南勢角站(4號出口),121.509950,24.989420,76,10,66,1,0.13157894736842105
1126,蘆洲區,柳堤公園,121.462192,25.087989,42,10,32,1,0.23809523809523808
1127,板橋區,新北市立圖書館總館,121.455524,25.001583,36,19,17,1,0.5277777777777778
1128,三重區,永福國小,121.480315,25.077714,28,5,23,1,0.17857142857142858
1129,泰山區,明志國小,121.426269,25.045729,64,5,59,1,0.078125
1130,蘆洲區,蘆洲三民公園,121.460134,25.094306,26,7,19,1,0.2692307692307692
1131,新莊區,臺北醫院,121.459772,25.043536,34,15,19,1,0.4411764705882353
1132,三重區,重新重安街口,121.489751,25.058443,36,16,15,1,0.4444444444444444
1133,新店區,柴埕市民活動中心,121.516479,24.966775,38,7,31,1,0.18421052631578946
1134,新莊區,思賢國小,121.457716,25.046446,52,9,43,1,0.17307692307692307
1135,板橋區,莊敬公園,121.470821,25.020983,38,7,31,1,0.18421052631578946
1136,新莊區,豐年國小,121.443230,25.031278,34,1,33,1,0.029411764705882353
1137,板橋區,新海長江路口,121.457367,25.02853,36,15,21,1,0.4166666666666667
1138,板橋區,捷運新埔站(4號出口),121.468559,25.023491,50,12,37,1,0.24
1139,板橋區,板橋仁愛公園,121.459696,24.996430,52,35,17,1,0.6730769230769231
1140,泰山區,泰山國小,121.431475,25.062345,32,15,8,1,0.46875
1142,新莊區,光華東帝士,121.427836,25.010795,34,7,27,1,0.20588235294117646
1143,板橋區,廣福公園,121.462872,24.991643,22,13,8,1,0.5909090909090909
1144,板橋區,板橋四維公園,121.462633,25.025464,54,8,46,1,0.14814814814814814
1145,土城區,捷運頂埔站(2號出口),121.419008,24.959276,52,38,14,1,0.7307692307692307
1146,三重區,龍門龍濱路口,121.500977,25.073475,36,6,24,1,0.16666666666666666
1147,新店區,青潭國小,121.551813,24.953101,40,23,17,1,0.575
1148,土城區,金城忠義路口,121.440808,24.969399,34,9,23,1,0.2647058823529412
1149,板橋區,華德公園,121.453320,24.991683,38,4,34,1,0.10526315789473684
1150,汐止區,橋東里(忠孝東路),121.666257,25.073682,28,10,17,1,0.35714285714285715
1151,板橋區,中山國中,121.467509,25.018559,28,10,17,1,0.35714285714285715
1152,土城區,捷運土城站(2號出口),121.443563,24.972631,52,9,43,1,0.17307692307692307
1153,板橋區,四川遠東路口,121.457355,24.998003,48,19,28,1,0.3958333333333333
1154,土城區,員林社區公園,121.443237,24.977883,42,5,35,1,0.11904761904761904
1155,永和區,中正橋,121.516809,25.017757,30,6,24,1,0.2
1156,汐止區,北港國小,121.645946,25.089027,44,27,17,1,0.6136363636363636
1157,新店區,捷運新店站,121.538659,24.958605,44,18,28,1,0.4090909090909091
1158,中和區,錦和高中,121.490760,24.993510,28,10,12,1,0.35714285714285715
1159,新莊區,新樹公園,121.433154,25.003383,32,4,28,1,0.125
1160,中和區,中和環球購物中心,121.474223,25.006367,32,8,23,1,0.25
1161,泰山區,楓樹腳公園,121.434939,25.061938,36,17,18,1,0.4722222222222222
1162,三重區,厚德公園,121.491200,25.071988,36,2,33,1,0.05555555555555555
1163,板橋區,板橋信義公園,121.456476,24.996183,40,22,18,1,0.55
1164,板橋區,國光里(國光路),121.458308,25.017755,34,16,9,1,0.47058823529411764
1165,板橋區,民生長江路口,121.463596,25.030904,100,19,78,1,0.19
1166,中和區,華福市民活動中心,121.467525,24.995482,28,4,24,1,0.14285714285714285
1167,板橋區,浮洲合宜住宅(合安一路),121.446343,24.999329,34,2,24,1,0.058823529411764705
1168,新莊區,建福公園,121.426685,25.027694,32,9,23,1,0.28125
1169,蘆洲區,水河里活動中心,121.473913,25.093949,52,22,30,1,0.4230769230769231
1170,土城區,延和社區公園,121.468910,24.990270,32,14,18,1,0.4375
1171,板橋區,國光公園,121.453852,25.019828,48,12,29,1,0.25
1172,樹林區,樹林火車站(後站),121.424652,24.992553,66,16,44,1,0.24242424242424243
1173,樹林區,文林國小,121.426360,24.997856,30,6,18,1,0.2
1174,土城區,土城綜合體育場,121.454211,24.983671,44,5,39,1,0.11363636363636363
1175,板橋區,板橋福德公園,121.467415,25.011498,32,24,8,1,0.75
1176,樹林區,光華公園,121.413157,25.005412,32,4,27,1,0.125
1177,樹林區,樹林大安活動中心,121.414770,24.986391,36,18,18,1,0.5
1178,蘆洲區,三民中山一路口,121.476004,25.082229,28,3,25,1,0.10714285714285714
1179,泰山區,義學國小,121.431669,25.051762,34,17,11,1,0.5
1180,三重區,自然公園,121.487987,25.089840,34,3,30,1,0.08823529411764706
1181,板橋區,板林溪北路口,121.426350,24.990555,42,28,14,1,0.6666666666666666
1182,板橋區,新北市藝文中心,121.472279,25.026542,40,5,35,1,0.125
1183,土城區,大安中央路口,121.432610,24.965619,32,15,17,1,0.46875
1184,中和區,中和地政事務所,121.502397,24.990393,20,9,11,1,0.45
1186,泰山區,同興公園,121.432128,25.055188,34,9,16,1,0.2647058823529412
1187,泰山區,新五泰國民運動中心,121.434262,25.055865,42,18,23,1,0.42857142857142855
1188,板橋區,溪洲公園停車場,121.426820,24.986723,34,4,29,1,0.11764705882352941
1189,板橋區,崑崙公園,121.429636,24.993406,30,13,16,1,0.43333333333333335
1190,土城區,捷運海山站(3號出口),121.449335,24.986923,74,17,55,1,0.22972972972972974
1191,新莊區,興化公園,121.461115,25.065234,38,6,32,1,0.15789473684210525
1192,板橋區,潤泰社區,121.479375,25.017953,28,17,11,1,0.6071428571428571
1193,新莊區,西盛館,121.432713,25.011905,30,14,16,1,0.4666666666666667
1194,中和區,秀朗成功路口,121.526550,24.995821,38,23,14,1,0.6052631578947368
1195,板橋區,板橋國中,121.454310,25.024903,54,7,47,1,0.12962962962962962
1196,板橋區,永豐公園活動中心,121.476853,25.021127,24,2,22,1,0.08333333333333333
1197,泰山區,義仁市民活動中心,121.427667,25.050479,36,8,28,1,0.2222222222222222
1198,鶯歌區,鶯歌國中,121.342963,24.951734,34,28,5,1,0.8235294117647058
1199,新莊區,捷運迴龍站(3號出口),121.413053,25.022760,60,11,46,1,0.18333333333333332
1200,三重區,捷運先嗇宮站(2號出口),121.470987,25.046068,42,6,36,1,0.14285714285714285
1201,鶯歌區,鶯歌火車站(仁愛路),121.354376,24.955591,58,15,43,1,0.25862068965517243
1204,新莊區,立泰里(中環路二段),121.442133,25.045676,34,12,22,1,0.35294117647058826
1205,淡水區,竹圍公園,121.463395,25.138234,28,4,24,1,0.14285714285714285
1206,鶯歌區,新北市立鶯歌陶瓷博物館,121.352832,24.949549,40,8,32,1,0.2
1207,板橋區,浮洲合宜住宅(樂群路),121.4465092,24.9969909,38,4,34,1,0.10526315789473684
1208,鶯歌區,尖山公園,121.345767,24.948220,44,8,35,1,0.18181818181818182
1209,汐止區,崇德橋東活動中心,121.667002,25.070512,30,0,28,1,0
1210,樹林區,樹林區衛生所,121.415032,24.983768,38,17,20,1,0.4473684210526316
1211,蘆洲區,溪墘公園,121.476205,25.079969,36,10,26,1,0.2777777777777778
1212,樹林區,育德國小,121.392602,24.970656,34,9,25,1,0.2647058823529412
1213,樹林區,彭福國小,121.423104,24.980335,40,6,32,1,0.15
1214,中和區,民享藝文特區,121.475345,25.003435,36,6,29,1,0.16666666666666666
1215,樹林區,億光電子(樹林高中),121.423601,24.983567,40,23,17,1,0.575
1216,土城區,捷運永寧站(2號出口),121.436227,24.965783,32,16,16,1,0.5
1217,淡水區,竿蓁市民活動中心,121.450831,25.165090,48,1,47,1,0.020833333333333332
1218,樹林區,長壽親子公園,121.421371,24.991853,38,13,22,1,0.34210526315789475
1219,淡水區,新市國小,121.444332,25.185313,36,23,7,1,0.6388888888888888
1220,鶯歌區,新北市立圖書館鶯歌分館,121.349704,24.957195,36,21,15,1,0.5833333333333334
1221,五股區,德音國小,121.435670,25.071515,36,3,33,1,0.08333333333333333
1222,淡水區,中山北新春街口,121.444742,25.180345,40,2,38,1,0.05
1223,淡水區,正德國中,121.447874,25.178512,18,3,15,1,0.16666666666666666
1224,土城區,金城立體停車場,121.458595,24.984102,42,20,22,1,0.47619047619047616
1225,三重區,先嗇宮,121.476007,25.051190,32,17,13,1,0.53125
1226,板橋區,板橋第一運動場,121.468352,25.009061,28,3,25,1,0.10714285714285714
1227,三重區,光興國小,121.500103,25.060339,36,8,28,1,0.2222222222222222
1228,新店區,安和市民活動中心,121.515687,24.975317,30,0,30,1,0
1229,中和區,景安板南路口,121.504443,24.992249,30,26,4,1,0.8666666666666667
1230,新莊區,新月橋,121.450011,25.032300,50,5,45,1,0.1
1231,三重區,修德國小,121.490450,25.065295,42,12,30,1,0.2857142857142857
1232,中和區,福祥里(中和溝),121.499565,25.005933,30,14,16,1,0.4666666666666667
1233,淡水區,輕軌濱海義山站,121.438708,25.189448,28,16,11,1,0.5714285714285714
1234,蘆洲區,鴨母港抽水站,121.456728,25.082935,40,7,33,1,0.175
1235,淡水區,捷運淡水站,121.444183,25.168826,106,49,56,1,0.46226415094339623
1236,新店區,安成安德街口,121.509988,24.961147,28,2,26,1,0.07142857142857142
1237,淡水區,淡水國民運動中心,121.443261,25.186496,46,18,26,1,0.391304347826087
1238,淡水區,捷運竹圍站,121.460112,25.137658,46,21,24,1,0.45652173913043476
1239,三重區,龍門公園,121.498484,25.074815,38,10,28,1,0.2631578947368421
1240,淡水區,輕軌淡水行政中心站,121.443505,25.188887,34,3,31,1,0.08823529411764706
1241,蘆洲區,永安圖書館,121.462228,25.078599,36,13,22,1,0.3611111111111111
1242,新莊區,西盛廣場,121.431485,25.000894,34,13,21,1,0.38235294117647056
1243,三峽區,三峽區公所(三峽老街),121.369158,24.934187,42,6,36,1,0.14285714285714285
1244,林口區,仁愛文化二路口,121.374258,25.077118,50,28,21,1,0.56
1245,板橋區,崑崙活力廣場,121.432880,24.993901,42,13,29,1,0.30952380952380953
1246,三重區,永盛公園,121.484304,25.076133,38,14,23,1,0.3684210526315789
1247,蘆洲區,鷺江廣場,121.477694,25.085621,16,7,9,1,0.4375
1248,三重區,六張公園,121.494048,25.069661,36,5,31,1,0.1388888888888889
1249,林口區,中山佳林路口,121.385587,25.079592,36,7,29,1,0.19444444444444445
1250,三峽區,國立臺北大學(三峽校區),121.373260,24.945553,58,39,18,1,0.6724137931034483
1251,林口區,林口區公所,121.388181,25.076742,34,14,19,1,0.4117647058823529
1252,林口區,新麗園社區,121.376882,25.070428,42,11,29,1,0.2619047619047619
1253,新莊區,中正富國路口,121.417694,25.025940,42,17,24,1,0.40476190476190477
1254,樹林區,大同國小,121.416844,24.981146,36,12,24,1,0.3333333333333333
1255,五股區,新北市立圖書館五股成功分館,121.446741,25.094784,42,7,34,1,0.16666666666666666
1256,中和區,民德立體停車場,121.468345,24.999098,32,12,14,1,0.375
1257,林口區,麗林公有市場,121.367761,25.069123,34,20,14,1,0.5882352941176471
1258,樹林區,南樹林火車站,121.408605,24.980236,34,7,21,1,0.20588235294117646
1259,鶯歌區,新北市立鶯歌高級工商職業學校,121.334639,24.939095,40,36,4,1,0.9
1260,新莊區,行政院新莊聯合辦公大樓,121.444423,25.055969,44,22,22,1,0.5
1261,樹林區,柑園五里聯合活動中心,121.386183,24.950576,40,21,19,1,0.525
1262,中和區,中和自強公園,121.472513,24.999132,38,7,31,1,0.18421052631578946
1264,林口區,林口自強公園,121.397208,25.078126,36,17,17,1,0.4722222222222222
1265,鶯歌區,永昌里兒一公園,121.339645,24.956661,36,5,25,1,0.1388888888888889
1266,林口區,捷運林口站(1號出口),121.361962,25.065970,52,40,12,1,0.7692307692307693
1267,汐止區,南興公園,121.652549,25.059779,44,2,41,1,0.045454545454545456
1268,林口區,立言公園,121.362340,25.073427,34,11,23,1,0.3235294117647059
1269,板橋區,溪北公園,121.432281,24.990060,36,5,30,1,0.1388888888888889
1270,土城區,頂新祖田市民活動中心,121.411768,24.952710,34,8,25,1,0.23529411764705882
1271,泰山區,貴和市民活動中心,121.421928,25.034961,34,4,21,1,0.11764705882352941
1272,土城區,頂埔國小,121.414421,24.956343,34,8,23,1,0.23529411764705882
1273,三峽區,三峽區礁溪行政中心,121.375921,24.928438,32,4,28,1,0.125
1274,林口區,林口國小,121.389307,25.080533,36,17,18,1,0.4722222222222222
1275,林口區,南勢市民活動中心,121.358924,25.074035,34,11,23,1,0.3235294117647059
1276,土城區,青山廣場,121.459751,24.977837,36,3,33,1,0.08333333333333333
1277,林口區,林口社區運動公園,121.377001,25.074150,50,30,20,1,0.6
1278,新莊區,捷運新莊站 ( 2號出口 ),121.452792,25.036075,40,30,9,1,0.75
1279,樹林區,俊英俊保路口,121.425183,25.009150,30,1,29,1,0.03333333333333333
1280,五股區,五股國民運動中心,121.448652,25.095553,36,17,19,1,0.4722222222222222
1281,樹林區,學成大義路口,121.378671,24.945099,46,16,30,1,0.34782608695652173
1282,新莊區,捷運頭前庄站(1號出口),121.460856,25.039365,114,62,52,1,0.543859649122807
1283,淡水區,文化機車立體停車場,121.438806,25.172485,32,11,20,1,0.34375
1284,五股區,成德公園,121.452963,25.105052,36,16,20,1,0.4444444444444444
1285,林口區,頭湖國小,121.372687,25.081673,38,8,30,1,0.21052631578947367
1286,土城區,金城立德路口,121.465481,24.986691,38,2,36,1,0.05263157894736842
1287,三峽區,恩主公醫院,121.363553,24.938912,66,54,11,1,0.8181818181818182
1288,中和區,中和區公所,121.500533,24.998558,24,24,0,1,1
1289,汐止區,忠山市民活動中心,121.624493,25.078202,36,15,21,1,0.4166666666666667
1290,三重區,三重永豐公園,121.478162,25.074629,24,4,20,1,0.16666666666666666
1291,板橋區,臺灣藝術大學,121.448000,25.007502,56,36,20,1,0.6428571428571429
1292,新莊區,新莊體育館,121.452459,25.040766,40,5,34,1,0.125
1293,永和區,永和耕莘醫院,121.517701,25.011232,32,4,22,1,0.125
1295,蘆洲區,永安兒童公園,121.482236,25.082273,40,22,17,1,0.55
1296,中和區,新北市立中和高級中學,121.478230,24.993700,36,19,17,1,0.5277777777777778
1297,林口區,扶輪公園,121.369480,25.072864,40,22,18,1,0.55
1298,中和區,安邦公園,121.496647,24.996867,34,21,13,1,0.6176470588235294
1299,林口區,立德公園,121.367223,25.076441,34,2,32,1,0.058823529411764705
1300,板橋區,新北市政府(新站路),121.466455,25.012614,60,35,23,1,0.5833333333333334
1301,土城區,清水高中,121.465444,24.982756,40,24,15,1,0.6
1302,板橋區,板橋車站,121.463735,25.015519,82,64,17,1,0.7804878048780488
1303,樹林區,樹林國民運動中心,121.422847,25.004186,34,6,27,1,0.17647058823529413
1304,新莊區,捷運輔大站(4號出口),121.436484,25.033025,42,21,21,1,0.5
1305,新莊區,民安東民全街口,121.429556,25.020774,36,10,26,1,0.2777777777777778
1306,三重區,中興北街175巷口,121.471327,25.055970,32,15,16,1,0.46875
1307,汐止區,仁愛路151巷口,121.663885,25.064819,44,2,41,1,0.045454545454545456
1308,五股區,五股工商立體停車場,121.439555,25.082494,40,28,12,1,0.7
1309,土城區,沛陂社區公園,121.419672,24.963289,28,18,10,1,0.6428571428571429
1310,中和區,佳和公園,121.503171,25.006927,34,14,20,1,0.4117647058823529
1311,板橋區,溪頭公園,121.468403,25.033086,32,13,19,1,0.40625
1312,新莊區,龍鳳公園,121.416497,25.021447,40,35,4,1,0.875
1313,新莊區,伊吉邦社區,121.413402,25.030186,40,9,31,1,0.225
1314,樹林區,三多第1市民活動中心,121.404257,25.016361,34,15,19,1,0.4411764705882353
1315,土城區,新北高工,121.449900,24.982770,44,26,18,1,0.5909090909090909
1316,瑞芳區,瑞芳火車站,121.806460,25.108506,38,9,13,1,0.23684210526315788
1317,土城區,長風社區,121.439369,24.978108,28,2,26,1,0.07142857142857142
1318,永和區,永和國民運動中心,121.524246,25.003555,40,16,23,1,0.4
1319,中和區,民樂人行廣場,121.482594,25.001834,36,3,31,1,0.08333333333333333
1320,樹林區,民生親子公園,121.428196,24.992983,30,16,14,1,0.5333333333333333
1321,樹林區,樹林工業區,121.416091,25.000868,38,11,26,1,0.2894736842105263
1322,三峽區,龍埔公園,121.373676,24.938911,36,15,21,1,0.4166666666666667
1323,鶯歌區,尖山國中,121.342089,24.944300,32,15,16,1,0.46875
1324,新店區,新北市立圖書館新店分館,121.540903,24.982138,20,2,25,1,0.1
1325,板橋區,浮洲火車站,121.444447,25.004098,36,20,14,1,0.5555555555555556
1326,土城區,捷運海山站(1號出口),121.448504,24.984695,80,42,38,1,0.525
1327,深坑區,深坑區公所(深坑老街),121.616311,25.0015,50,22,22,1,0.44
1328,深坑區,東南科技大學,121.602501,25.0033,34,20,13,1,0.5882352941176471
1329,中和區,德光國光街口,121.468087,25.003136,34,3,23,1,0.08823529411764706
1330,瑞芳區,猴硐火車站,121.827190,25.086470,14,5,9,1,0.35714285714285715
1331,永和區,永和國父紀念館,121.520234,25.008390,22,9,12,1,0.4090909090909091
1332,五股區,台北得意GO,121.467852,25.074424,30,12,11,1,0.4
1333,板橋區,大觀國中,121.447237,25.011210,40,32,8,1,0.8
1335,三重區,三重五常公園,121.496149,25.080648,28,3,22,1,0.10714285714285714
1336,三重區,三德公園,121.500542,25.074974,28,0,36,1,0
1337,三重區,力行大勇街口,121.481508,25.071928,30,6,24,1,0.2
1338,蘆洲區,蘆洲延平派出所,121.461620,25.081620,36,13,22,1,0.3611111111111111
1339,蘆洲區,永安南路九芎街71巷口,121.466071,25.077564,36,6,29,1,0.16666666666666666
1340,中和區,福和宮,121.501991,25.001110,50,26,24,1,0.52
1341,中和區,飛駝社區(興南路),121.504826,24.983471,32,2,29,1,0.0625
1342,永和區,保平路214巷,121.509208,25.007010,22,2,20,1,0.09090909090909091
1343,汐止區,汐科火車站(南),121.646597,25.062884,64,35,29,1,0.546875
1344,樹林區,樹林國小,121.41791,24.989136,34,10,22,1,0.29411764705882354
1345,鶯歌區,永吉國小,121.333095,24.958747,36,13,21,1,0.3611111111111111
1346,三峽區,中園國小,121.366919,24.927551,32,16,16,1,0.5
1347,三峽區,介壽國小,121.378835,24.930341,30,18,10,1,0.6
1348,三峽區,安溪國中,121.371957,24.926790,32,19,11,1,0.59375
1349,三峽區,龍埔國小,121.376763,24.941224,38,12,26,1,0.3157894736842105
1350,樹林區,大安路與中山路二段口,121.411318,24.983043,34,10,24,1,0.29411764705882354
1351,樹林區,樹林區公所,121.424780,24.989760,40,15,24,1,0.375
1352,蘆洲區,蘆洲重陽大樓,121.481887,25.085055,22,12,10,1,0.5454545454545454
1353,板橋區,埔墘國小,121.473724,25.019078,18,0,18,1,0
1354,中和區,圓通錦和路口,121.491482,24.989236,46,25,21,1,0.5434782608695652
1355,八里區,下庄市場,121.399748,25.146498,30,10,19,1,0.3333333333333333
1356,土城區,亞洲員安路口,121.434796,24.972621,34,8,25,1,0.23529411764705882
1357,樹林區,大安路307巷口,121.417726,24.992158,32,6,26,1,0.1875
1358,淡水區,漁人碼頭,121.411178,25.183869,50,10,39,1,0.2
1359,樹林區,味王街,121.404424,24.974674,30,22,2,1,0.7333333333333333
1360,新莊區,福基公園,121.460892,25.058100,32,2,30,1,0.0625
1361,板橋區,振義里公園,121.483965,25.023888,22,2,20,1,0.09090909090909091
1362,三峽區,安溪國小,121.372344,24.930621,36,14,22,1,0.3888888888888889
1363,中和區,中和安和路口,121.506022,24.999667,34,23,10,1,0.6764705882352942
1364,中和區,元氣大鎮社區,121.478997,25.005718,20,6,14,1,0.3
1365,中和區,員勝公園,121.478686,25.010284,32,24,8,1,0.75
1366,永和區,永和自由街,121.513339,25.005200,24,3,21,1,0.125
1367,中和區,安樂宜安路口,121.513506,24.995273,28,16,11,1,0.5714285714285714
1368,新莊區,昌隆國小,121.454891,25.052129,30,4,26,1,0.13333333333333333
1369,新莊區,捷運新莊副都心站,121.446614,25.059145,46,31,15,1,0.6739130434782609
1370,泰山區,捷運泰山站,121.439683,25.053127,34,19,15,1,0.5588235294117647
1371,八里區,八里中庄市場綜合大樓,121.414074,25.159934,36,13,21,1,0.3611111111111111
1372,板橋區,江翠國中,121.468512,25.027987,30,14,16,1,0.4666666666666667
1373,新莊區,捷運新北產業園區站,121.459184,25.062029,44,33,9,1,0.75
1374,泰山區,捷運泰山貴和站,121.422215,25.033192,36,3,33,1,0.08333333333333333
1375,八里區,龍形停車場,121.451302,25.130410,40,19,20,1,0.475
1376,淡水區,捷運紅樹林站,121.459124,25.153578,58,16,42,1,0.27586206896551724
1377,淡水區,大庄一號公園,121.422185,25.181957,28,2,25,1,0.07142857142857142
1378,林口區,三井Outlet,121.366303,25.071574,50,36,14,1,0.72
1379,五股區,貿商國宅,121.43031,25.069463,40,14,26,1,0.35
1380,三重區,中正北路193巷(愛買三重店),121.475985,25.071362,42,15,21,1,0.35714285714285715
1381,三重區,翔譽雙子星,121.492924,25.053638,28,4,23,1,0.14285714285714285
1382,泰山區,明志科技大學,121.422548,25.040434,50,31,18,1,0.62
1383,蘆洲區,三民高中(民權路),121.473928,25.088024,36,12,24,1,0.3333333333333333
1384,三重區,環河福德南路口,121.502173,25.060285,32,6,25,1,0.1875
1385,樹林區,文林國小(潭興街),121.424892,24.998601,34,6,28,1,0.17647058823529413
1386,林口區,林口老街,121.393777,25.077153,42,13,28,1,0.30952380952380953
1387,板橋區,板橋果菜批發市場,121.450020,25.021153,40,24,12,1,0.6
1388,新店區,安和公園,121.518853,24.974110,44,0,43,1,0
1389,樹林區,東陽市民活動中心,121.412517,24.982192,32,9,23,1,0.28125
1390,中和區,遠雄左岸,121.487799,25.009850,40,23,17,1,0.575
1391,中和區,瓦磘溝(福真里),121.494692,25.004294,32,5,25,1,0.15625
1392,中和區,中正路161巷口,121.499333,24.992938,46,8,38,1,0.17391304347826086
1394,瑞芳區,瑞峰橋,121.810410,25.107120,44,3,31,1,0.06818181818181818
1395,汐止區,民族二街明峰街口,121.635015,25.071049,22,8,14,1,0.36363636363636365
1401,板橋區,光復國小,121.481930,25.015064,30,3,27,1,0.1
1402,汐止區,世貿國家公園社區,121.658646,25.072887,22,11,11,1,0.5
1403,新店區,新店新和國小,121.517682,24.984975,40,4,31,1,0.1
1404,土城區,立德青雲路口,121.460675,24.988355,62,13,49,1,0.20967741935483872
1405,林口區,新北市林口行政園區,121.363632,25.070158,42,13,28,1,0.30952380952380953
1406,汐止區,工建樟樹一路口,121.641033,25.063062,36,13,23,1,0.3611111111111111
1407,中和區,中和青年社會住宅,121.519329,24.991135,46,16,30,1,0.34782608695652173
1408,蘆洲區,蘆洲李宅古蹟,121.466551,25.084959,30,2,28,1,0.06666666666666667
1409,板橋區,捷運府中站(2號出口),121.460148,25.009537,38,11,27,1,0.2894736842105263
1410,新莊區,新莊勞工中心,121.433736,25.020332,26,14,12,1,0.5384615384615384
1411,永和區,名利橋,121.500986,25.007850,32,17,15,1,0.53125
1412,新店區,捷運大坪林站(1號出口),121.541249,24.982755,26,8,12,1,0.3076923076923077
1413,永和區,福和國中停車場,121.522665,25.005011,40,21,17,1,0.525
1414,中和區,捷運中原站,121.485051,25.007307,66,45,21,1,0.6818181818181818
1415,新莊區,福美公園,121.461081,25.055033,40,1,39,1,0.025
1416,新莊區,輔仁大學附設醫院,121.431004,25.039272,32,11,21,1,0.34375
1417,林口區,民視數位媒體總部,121.379259,25.079876,40,11,27,1,0.275
1418,五股區,五股郵局,121.451127,25.101774,32,13,19,1,0.40625
1419,淡水區,新市一路一段99巷口,121.431016,25.187429,46,7,39,1,0.15217391304347827
1420,板橋區,國泰街111巷口,121.465773,25.006321,34,3,31,1,0.08823529411764706
1421,板橋區,湳雅觀光夜市(津渡橋),121.452440,25.007585,40,16,24,1,0.4
1422,土城區,學成公園,121.451187,24.988246,34,4,30,1,0.11764705882352941
1423,鶯歌區,鳳祥公園,121.330254,24.962819,30,10,19,1,0.3333333333333333
1425,新店區,中興路二段100巷口,121.547496,24.971355,30,14,9,1,0.4666666666666667
1426,永和區,福和橋,121.527850,25.004536,36,4,31,1,0.1111111111111111
1427,土城區,土城國中,121.430347,24.962443,32,15,17,1,0.46875
1428,新店區,安光公園,121.514462,24.964233,34,11,23,1,0.3235294117647059
1429,汐止區,崇德國小,121.669788,25.069378,58,2,56,1,0.034482758620689655
1430,土城區,中華中央路一段242巷口,121.443450,24.985510,38,3,33,1,0.07894736842105263
1431,五股區,公五公園,121.444520,25.086580,44,17,27,1,0.38636363636363635
1432,新店區,碧潭西岸,121.534795,24.956562,40,10,29,1,0.25
1433,樹林區,樹林大安站,121.421725,24.997312,56,38,16,1,0.6785714285714286
1434,林口區,廣停二停車場,121.370261,25.075711,36,2,34,1,0.05555555555555555
1435,五股區,民義公園,121.434500,25.088350,40,16,24,1,0.4
1436,林口區,大崙公園,121.359704,25.076613,32,8,24,1,0.25
1437,五股區,成州國小,121.450630,25.099230,28,14,8,1,0.5
1438,三重區,中興北街42巷17弄,121.468920,25.050060,26,18,8,1,0.6923076923076923
1439,板橋區,江翠國小,121.474420,25.032480,26,8,16,1,0.3076923076923077
1440,板橋區,華江一華江九路口,121.466442,25.032884,40,15,24,1,0.375
1441,三重區,三光國小(金滿意),121.496874,25.055960,36,5,31,1,0.1388888888888889
1442,蘆洲區,蘆洲中路公園,121.468143,25.082299,34,14,16,1,0.4117647058823529
1443,林口區,林口高中,121.380300,25.073840,38,20,18,1,0.5263157894736842
1444,永和區,雙和橋,121.505743,25.005731,34,1,33,1,0.029411764705882353
1446,永和區,環河西路一段95巷口,121.511957,25.017830,24,3,21,1,0.125
1447,中和區,碧河宮,121.493134,24.996726,40,34,5,1,0.85
1448,板橋區,萬板文聖街口,121.479675,25.026295,46,4,40,1,0.08695652173913043
1449,三峽區,明德高中,121.364848,24.907449,58,36,19,1,0.6206896551724138
1450,鶯歌區,鳳鳴國小,121.334806,24.969198,32,16,15,1,0.5
1451,板橋區,林本源園邸,121.455980,25.010860,32,6,25,1,0.1875
1452,三重區,藍天大樓,121.470165,25.053098,36,20,16,1,0.5555555555555556
1453,板橋區,忠孝國中,121.461195,25.004810,46,6,39,1,0.13043478260869565
1454,三重區,大智公園,121.494449,25.063608,22,4,18,1,0.18181818181818182
1455,鶯歌區,國際二國際一路口,121.334938,24.976171,38,22,16,1,0.5789473684210527
1456,三重區,三重高中,121.491710,25.054777,34,27,6,1,0.7941176470588235
1457,新莊區,昌平公園,121.458109,25.058664,40,18,20,1,0.45
1458,三峽區,新北市客家文化園區,121.359538,24.941729,38,22,16,1,0.5789473684210527
1459,淡水區,台北海洋科技大學,121.427011,25.191229,38,21,16,1,0.5526315789473685
1460,汐止區,蘭庭序大廈,121.652070,25.072070,30,1,23,1,0.03333333333333333
1461,永和區,福和路7巷口,121.524732,25.008540,30,20,9,1,0.6666666666666666
1462,新店區,捷運新店區公所站(1號出口),121.541011,24.967369,34,19,14,1,0.5588235294117647
1463,新莊區,新泰游泳池,121.442734,25.045414,26,13,13,1,0.5
1464,樹林區,森林公園,121.379760,24.948177,36,4,31,1,0.1111111111111111
1465,板橋區,馥華公園,121.445449,25.006117,34,19,15,1,0.5588235294117647
1466,板橋區,光復高中,121.482513,25.017443,42,31,11,1,0.7380952380952381
1467,鶯歌區,南雅育智路口,121.345824,24.953961,46,7,33,1,0.15217391304347827
1468,三重區,穀保家商,121.471028,25.068097,30,23,7,1,0.7666666666666667
1469,板橋區,文德國小(公館街),121.459595,25.021336,38,21,17,1,0.5526315789473685
1470,樹林區,學成大成路口,121.382719,24.946248,42,9,33,1,0.21428571428571427
1471,板橋區,石雕公園,121.469469,25.030261,24,21,2,1,0.875
1472,板橋區,民生縣民大道口,121.471011,25.018213,40,16,24,1,0.4
1473,板橋區,新北市藝文中心(文化路二段124巷),121.471401,25.025626,28,8,20,1,0.2857142857142857
1474,板橋區,四維公園地下停車場,121.463967,25.025618,74,22,52,1,0.2972972972972973
1475,土城區,廣福派出所,121.456247,24.988019,34,4,28,1,0.11764705882352941
1476,新店區,新和活動中心,121.521829,24.986771,38,22,16,1,0.5789473684210527
1477,新莊區,大眾廟,121.457660,25.037380,30,14,16,1,0.4666666666666667
1478,新莊區,化成公園,121.461962,25.047860,32,13,19,1,0.40625
1479,三峽區,龍恩公園,121.370524,24.941359,36,15,21,1,0.4166666666666667
1480,五股區,新北市工商展覽中心,121.447585,25.064345,46,30,16,1,0.6521739130434783
1481,土城區,金城裕民路口(中正國中),121.456229,24.982933,44,13,31,1,0.29545454545454547
1482,中和區,圓通路335巷33弄,121.493033,24.988992,24,8,16,1,0.3333333333333333
1483,三峽區,海洋公園,121.376895,24.947490,36,18,18,1,0.5
1484,板橋區,浮洲合宜住宅(合宜一路),121.442760,24.996520,26,5,45,1,0.19230769230769232
1485,新店區,文山國中,121.539270,24.955310,30,12,18,1,0.4
1486,三峽區,臺北大學(資訊中心),121.369520,24.943170,56,49,6,1,0.875
1487,板橋區,捷運府中站(1號出口),121.459010,25.008180,76,28,48,1,0.3684210526315789
1488,新莊區,新莊田徑場,121.452440,25.043570,42,9,27,1,0.21428571428571427
1490,新店區,碧潭渡船頭,121.537460,24.953100,32,9,20,1,0.28125
1491,樹林區,山佳火車站,121.392640,24.972220,32,11,19,1,0.34375
1492,五股區,新北市勞工活動中心,121.450980,25.061490,34,23,11,1,0.6764705882352942
1493,板橋區,板橋重慶公園,121.463160,25.000080,40,3,30,1,0.075
1494,林口區,林口社區運動公園(公園路),121.374400,25.074640,40,18,22,1,0.45
1495,中和區,山北公園,121.500140,25.006530,24,13,11,1,0.5416666666666666
1496,中和區,捷運景平站,121.515630,24.992020,38,20,18,1,0.5263157894736842
1497,新莊區,中港大排願景館,121.451170,25.058940,30,24,6,1,0.8
1498,新莊區,頭前國小,121.465270,25.052480,30,19,11,1,0.6333333333333333
1499,淡水區,輕軌淡金北新站,121.453330,25.180180,46,10,36,1,0.21739130434782608
1500,永和區,忠孝活動中心,121.515280,25.016770,20,9,11,1,0.45
1501,淡水區,淡水海關碼頭園區,121.431550,25.174760,30,24,6,1,0.8
1502,板橋區,縣民漢生東路口,121.467090,25.015600,56,4,52,1,0.07142857142857142
1503,板橋區,時光公園,121.479730,25.036150,32,6,25,1,0.1875
1504,中和區,積穗國中,121.478080,24.999770,24,7,17,1,0.2916666666666667
1505,土城區,員和公園,121.442540,24.979040,68,11,49,1,0.16176470588235295
1506,板橋區,環河公園,121.450640,25.016660,36,6,30,1,0.16666666666666666
1507,新店區,中興中正路口,121.546170,24.969910,22,2,20,1,0.09090909090909091
1508,新莊區,新莊國民運動中心,121.449620,25.039610,40,9,31,1,0.225
1509,中和區,佳和公園(中山路二段64巷),121.502960,25.004690,36,0,0,1,0
1510,三峽區,三鶯國民運動中心,121.369410,24.936140,32,11,21,1,0.34375
1511,蘆洲區,彩虹兒童公園,121.464600,25.088710,36,10,26,1,0.2777777777777778
1512,林口區,崇林國中,121.371340,25.067540,34,29,5,1,0.8529411764705882
1513,三重區,碧華公園(集勇街),121.485540,25.084150,30,7,23,1,0.23333333333333334
1514,土城區,延吉街47巷口,121.472220,24.987690,28,0,0,1,0
1515,板橋區,大觀路二段19巷,121.450790,25.002560,30,9,15,1,0.3
1516,五股區,成泰路一段(中油),121.435650,25.078430,26,6,20,1,0.23076923076923078
1517,土城區,清和里(青雲路),121.458740,24.975120,32,10,22,1,0.3125
1601,淡水區,輕軌濱海沙崙站,121.430600,25.189950,30,7,23,1,0.23333333333333334
1602,淡水區,輕軌淡海新市鎮站,121.432860,25.196230,30,4,26,1,0.13333333333333333
1603,淡水區,輕軌崁頂站,121.435020,25.201250,18,7,11,1,0.3888888888888889
1604,淡水區,輕軌淡江大學站,121.456130,25.176530,40,2,38,1,0.05
1605,淡水區,輕軌新市一路站,121.448370,25.183450,34,12,22,1,0.35294117647058826
1607,板橋區,四川忠孝路口,121.459240,25.001490,34,11,23,1,0.3235294117647059
1608,五股區,陸光國宅,121.430790,25.088810,30,9,15,1,0.3
1609,板橋區,仁化文新路口,121.479190,25.034630,28,5,23,1,0.17857142857142858
1610,樹林區,中山新興街口,121.400230,24.974990,40,10,29,1,0.25
1611,板橋區,信義公園市民活動中心,121.457500,24.991700,34,7,27,1,0.20588235294117646
1612,三重區,文中小停車場,121.482550,25.058990,40,7,32,1,0.175
1613,新店區,安康高中,121.515050,24.968860,70,36,33,1,0.5142857142857142
1614,新店區,中正路284巷,121.538420,24.974700,28,9,18,1,0.32142857142857145
1615,五股區,御史路1巷,121.441920,25.090440,30,10,14,1,0.3333333333333333
1616,淡水區,新市二路二段,121.427930,25.195240,30,15,15,1,0.5
1617,新店區,光明街,121.540090,24.963160,20,0,20,1,0
1618,中和區,環河西路三段(日安社區),121.493210,25.007740,24,12,11,1,0.5
1619,板橋區,民生中山路口,121.473460,25.016060,22,2,20,1,0.09090909090909091
1620,板橋區,重慶國小,121.462530,24.993730,14,6,8,1,0.42857142857142855
1621,板橋區,板橋真武廟,121.485940,25.020460,34,11,22,1,0.3235294117647059
1622,鶯歌區,鶯歌國民運動中心,121.357750,24.951340,36,12,23,1,0.3333333333333333
1623,板橋區,南雅公園,121.455160,25.003870,40,1,39,1,0.025
1624,新店區,中正民權路口,121.533600,24.982630,80,38,41,1,0.475
1625,板橋區,捷運新埔站(1號出口),121.467450,25.023500,94,53,41,1,0.5638297872340425
1626,中和區,中原東街(左岸牡丹園),121.485920,25.012900,38,2,36,1,0.05263157894736842
1627,土城區,土城仁愛社區公園,121.460620,24.980390,34,5,28,1,0.14705882352941177
1628,新店區,五峰國中,121.543230,24.965910,22,10,12,1,0.45454545454545453
1629,八里區,大崁國小,121.419380,25.160640,36,20,16,1,0.5555555555555556
1630,三重區,東海高中,121.479420,25.064840,40,38,2,1,0.95
1631,土城區,中山1號科技總部,121.412120,24.960450,36,22,13,1,0.6111111111111112
1632,新莊區,中平國中,121.444070,25.054260,40,31,9,1,0.775
1633,蘆洲區,仁愛街70巷口,121.471260,25.093980,24,1,23,1,0.041666666666666664
1634,新店區,中印青潭廠,121.559470,24.954460,18,8,7,1,0.4444444444444444
1635,淡水區,淡江大學(水源街),121.452360,25.174570,42,2,40,1,0.047619047619047616
1636,板橋區,健華新城社區,121.465300,25.019270,52,7,45,1,0.1346153846153846
1637,淡水區,美麗新淡海影城,121.438780,25.197830,44,0,43,1,0
1638,新店區,寶橋路235巷口,121.552340,24.979550,36,22,14,1,0.6111111111111112
1639,新店區,安康立體停車場,121.512670,24.962610,32,3,29,1,0.09375
1640,樹林區,全球傳動科技公司,121.414810,25.008010,38,35,3,1,0.9210526315789473
1641,中和區,興南路二段34巷口,121.507010,24.985390,24,2,22,1,0.08333333333333333
1642,三峽區,復興民生街口,121.373240,24.937010,38,6,32,1,0.15789473684210525
1643,板橋區,環河西大漢街口,121.461200,25.031830,40,9,31,1,0.225
1644,八里區,十三行博物館,121.405880,25.156970,46,22,24,1,0.4782608695652174
1645,板橋區,莒光國小,121.474650,25.025650,30,1,29,1,0.03333333333333333
1646,林口區,林口郵局,121.364530,25.066670,38,10,28,1,0.2631578947368421
1647,林口區,竹林山觀音寺,121.389830,25.084520,34,9,24,1,0.2647058823529412
1648,新店區,青潭河濱公園,121.547400,24.950910,22,13,7,1,0.5909090909090909
1649,中和區,捷運中和站,121.495870,25.002210,28,10,18,1,0.35714285714285715
1650,淡水區,公23公園,121.428910,25.199850,22,10,11,1,0.45454545454545453
1651,中和區,捷運秀朗橋站,121.525490,24.990390,34,22,11,1,0.6470588235294118
1652,板橋區,板橋中山公園,121.471090,25.023360,22,4,18,1,0.18181818181818182
1653,中和區,民有公園,121.474750,25.008680,40,7,32,1,0.175
1654,三重區,仁愛街112巷,121.494880,25.074860,40,3,29,1,0.075
1655,中和區,華新街109巷11弄,121.508730,24.979960,50,10,40,1,0.2
1656,汐止區,康寧街307巷,121.626970,25.068090,40,24,15,1,0.6
1657,三重區,中興橋(環河南路254巷口),121.491380,25.050520,40,17,23,1,0.425
1658,林口區,新林國小,121.359950,25.070160,40,9,31,1,0.225
1659,淡水區,滬尾藝文休閒園區,121.428510,25.175940,26,6,19,1,0.23076923076923078
1660,汐止區,康福公園,121.637480,25.068940,20,9,11,1,0.45
1661,淡水區,新市二路四段,121.441850,25.192540,28,5,23,1,0.17857142857142858
1662,淡水區,義山新市一路口,121.437360,25.186230,22,12,18,1,0.5454545454545454
1663,新莊區,中信國小,121.449570,25.055720,40,9,31,1,0.225
1664,板橋區,捷運板新站,121.471240,25.014090,82,20,60,1,0.24390243902439024
1665,板橋區,三抱竹,121.441390,24.998640,26,11,15,1,0.4230769230769231
1667,三重區,慈愛公園,121.484610,25.081190,18,2,16,1,0.1111111111111111
1668,汐止區,汐止火車站停車場,121.661680,25.067950,88,50,36,1,0.5681818181818182
1669,土城區,頂埔市場,121.415080,24.958190,34,1,27,1,0.029411764705882353
1670,樹林區,樹林藝文綜合行政大樓,121.429100,24.995460,60,23,37,1,0.38333333333333336
1671,中和區,光華橋(保平路),121.507900,25.004520,36,18,18,1,0.5
1672,泰山區,台北花園廣場社區,121.426000,25.064140,30,4,26,1,0.13333333333333333
1673,永和區,民權社區活動中心,121.519680,24.997780,22,12,7,1,0.5454545454545454
1674,板橋區,捷運新埔站(5號出口),121.468280,25.024020,56,20,36,1,0.35714285714285715
1675,中和區,捷運橋和站,121.489210,25.005590,62,52,7,1,0.8387096774193549
1676,鶯歌區,國中二甲路口,121.338670,24.939500,30,16,14,1,0.5333333333333333
1677,新店區,陽光Park社區,121.515550,24.979400,32,6,26,1,0.1875
1678,新店區,捷運十四張站,121.527930,24.984500,80,2,78,1,0.025
1679,五股區,芳洲八路,121.446370,25.088800,30,9,20,1,0.3
1680,三重區,後竹圍市民活動中心,121.485760,25.072460,32,9,23,1,0.28125
1681,林口區,林口國民運動中心,121.380930,25.086010,40,10,27,1,0.25
1682,土城區,中央路一段292巷口,121.443680,24.982650,48,2,45,1,0.041666666666666664
1683,深坑區,深坑松柏街,121.638520,25.010960,34,15,13,1,0.4411764705882353
1684,金山區,金美國小,121.636330,25.219730,28,10,18,1,0.35714285714285715
1685,金山區,金山八德街,121.634690,25.223650,30,9,20,1,0.3
1687,新店區,寶橋路78巷口,121.547600,24.973680,44,22,15,1,0.5
1688,鶯歌區,鳳福公園,121.329380,24.975720,40,13,26,1,0.325
1689,林口區,林口新創園,121.376090,25.075830,32,29,2,1,0.90625
1690,中和區,漳和國中,121.505000,25.002410,50,30,18,1,0.6
1691,新莊區,遠東動力企業總部,121.429990,25.031130,30,25,5,1,0.8333333333333334
1692,土城區,清水社區公園,121.462890,24.984000,54,5,49,1,0.09259259259259259
1693,林口區,國立師範大學林口校區(測試站),121.397950,25.068040,16,0,16,1,0
1694,土城區,斬龍山遺址文化公園,121.447750,24.976570,50,31,19,1,0.62
1695,汐止區,長安橋(吉祥街12巷),121.668460,25.080330,54,10,41,1,0.18518518518518517
1696,三重區,三重商工(後竹圍街),121.479760,25.070310,36,10,26,1,0.2777777777777778
1697,板橋區,香社一藝文街口(歡喜市社區),121.450790,25.020780,40,12,22,1,0.3
1698,板橋區,浮洲合宜住宅(合宜合安一路口),121.448630,24.998490,50,8,41,1,0.16
1699,新莊區,中正福海街口,121.444890,25.034590,44,0,44,1,0
1700,中和區,德光莒光路口,121.471340,25.004590,38,2,36,1,0.05263157894736842
1701,新莊區,捷運幸福站,121.460520,25.049580,16,3,13,1,0.1875
1702,五股區,成泰路4段22巷,121.455960,25.108260,48,14,27,1,0.2916666666666667
1703,新店區,新店高中(中央路),121.531030,24.975080,42,24,12,1,0.5714285714285714
1705,新店區,新店行政園區,121.542050,24.967570,86,62,22,1,0.7209302325581395
1706,金山區,中角灣,121.632340,25.239000,20,7,13,1,0.35
1707,樹林區,俊興三龍街口,121.418210,25.017040,30,12,18,1,0.4
1708,新店區,綠湖公園,121.547510,24.977560,36,17,15,1,0.4722222222222222
1709,中和區,捷運景安站,121.504720,24.993520,82,25,57,1,0.3048780487804878
1710,林口區,林口婦幼公園,121.377520,25.072310,28,6,22,1,0.21428571428571427
1711,土城區,金城裕民路口(金城舞社區),121.454660,24.981560,34,12,22,1,0.35294117647058826
1712,林口區,湖南市民活動中心,121.374280,25.084230,30,9,20,1,0.3
1713,板橋區,埤墘公園,121.474220,25.023320,30,4,26,1,0.13333333333333333
1714,五股區,德泰公園,121.434730,25.068020,28,14,11,1,0.5
1715,板橋區,華江一華江六路口(仰真社區),121.470250,25.034020,32,8,23,1,0.25
1716,板橋區,華江一華江五路口(雙江翠社區),121.472520,25.034560,32,13,18,1,0.40625
1717,板橋區,捷運新埔民生站,121.466567,25.025979,32,5,27,1,0.15625
1718,萬里區,野柳地質公園,121.690132,25.204771,50,11,36,1,0.22
1719,石門區,白沙灣,121.522085,25.285491,50,10,40,1,0.2
1720,板橋區,文化路二段182巷1弄,121.472405,25.029258,40,15,24,1,0.375
1721,三芝區,淺水灣,121.471307,25.252317,44,10,34,1,0.22727272727272727
1722,新店區,安居公教住宅,121.512927,24.959504,30,14,15,1,0.4666666666666667
1723,蘆洲區,林建生紀念圖書館,121.469879,25.088434,34,4,30,1,0.11764705882352941
1724,板橋區,永翠藝文街口(大禾社區),121.450290,25.018010,38,12,25,1,0.3157894736842105
1725,三峽區,三峽國中,121.369399,24.938882,50,43,6,1,0.86
1726,新莊區,宏匯廣場,121.449083,25.059319,40,15,25,1,0.375
1727,八里區,八里行政中心,121.407211,25.153974,36,20,16,1,0.5555555555555556
1728,三重區,疏洪東竹圍仔街口,121.486398,25.048614,26,11,13,1,0.4230769230769231
1729,新店區,民生路156巷,121.527509,24.982019,26,4,22,1,0.15384615384615385
1730,瑞芳區,深澳漁港,121.818566,25.129973,30,16,5,1,0.5333333333333333
1731,新莊區,新北大道昌平街口(臨時站),121.454735,25.060353,16,6,10,1,0.375
1732,新莊區,新泰路255巷口,121.442696,25.039314,36,10,26,1,0.2777777777777778
1734,土城區,中華城林路口,121.438631,24.974993,44,30,12,1,0.6818181818181818
1736,樹林區,中山八德街口,121.417765,24.985156,32,4,27,1,0.125
1737,新店區,順德街(御中央3社區),121.529800,24.978860,40,20,14,1,0.5
1738,淡水區,輕軌漁人碼頭站,121.418820,25.182020,38,10,28,1,0.2631578947368421
1739,五股區,凌雲路一段158巷口,121.448100,25.103520,30,5,25,1,0.16666666666666666
1740,土城區,中央慶利街口(風華綠中央社區),121.440520,24.973380,16,5,10,1,0.3125
1741,新店區,央北青年社會住宅,121.526430,24.982630,58,1,50,1,0.017241379310344827
1742,新莊區,瓊林公園,121.442450,25.026290,30,12,17,1,0.4
1743,新莊區,宏匯思源廣場,121.459050,25.057480,40,0,2,1,0
1744,板橋區,環河西新月一街口(新月天地社區),121.452950,25.026650,32,0,-2,1,0
1745,板橋區,永翠藝文街口(柏克萊公園社區),121.450660,25.018110,40,22,18,1,0.55
1746,汐止區,矽谷園區,121.634470,25.062270,48,17,23,1,0.3541666666666667
1747,淡水區,輕軌沙崙站,121.416750,25.187370,30,4,26,1,0.13333333333333333
1748,深坑區,深坑雲鄉路,121.621010,24.999880,16,3,13,1,0.1875
1749,三峽區,三峽國光青年社會住宅,121.376860,24.937430,52,22,19,1,0.4230769230769231
1750,新店區,十四張央北二路口(波爾多社區),121.526350,24.982850,40,13,19,1,0.325
1751,板橋區,藝文藝文二街口(大悅社區),121.451370,25.021790,32,0,0,1,0
1752,汐止區,福德一路201巷口(福德ONE社區),121.635100,25.065750,40,0,0,1,0
1753,樹林區,四維國凱街口(立天下社區),121.422410,24.979320,40,17,21,1,0.425
1754,三重區,頂崁公園,121.475600,25.054930,32,19,7,1,0.59375
1755,土城區,青雲路451巷口(紐約艾美社區),121.458730,24.974750,36,0,0,1,0
1756,板橋區,華江九華江一路口(匯翠社區),121.466130,25.032990,34,10,24,1,0.29411764705882354
1757,金山區,中山環金路口,121.641400,25.217940,34,11,21,1,0.3235294117647059
1758,金山區,中山溫泉公園,121.641770,25.221080,50,12,31,1,0.24
1759,土城區,學士學府路口(大苑社區),121.445270,24.976690,34,0,0,1,0
1760,八里區,龍米停車場,121.436040,25.156780,36,17,18,1,0.4722222222222222
1761,中和區,雙和醫院,121.494110,24.993670,30,22,8,1,0.7333333333333333
1762,新店區,寶高智慧產業園區,121.551330,24.977500,60,23,33,1,0.38333333333333336
1763,三重區,捷運三重站(1號出口),121.483220,25.054640,40,12,25,1,0.3
